{
  "flights": [
    {
      "id": 1,
      "flight_number": "CA123",
      "airline": "Air China",
      "departure_airport": "PEK",
      "arrival_airport": "CTU",
      "departure_time": "2023-05-08 08:30:00",
      "arrival_time": "2023-05-08 11:30:00",
      "status": "on-time",
      "aircraft_type": "Boeing 737"
    },
    {
      "id": 2,
      "flight_number": "MU456",
      "airline": "China Eastern",
      "departure_airport": "PVG",
      "arrival_airport": "CAN",
      "departure_time": "2023-05-08 09:15:00",
      "arrival_time": "2023-05-08 12:45:00",
      "status": "delayed",
      "aircraft_type": "Airbus A320"
    },
    {
      "id": 3,
      "flight_number": "CZ789",
      "airline": "China Southern",
      "departure_airport": "CAN",
      "arrival_airport": "PEK",
      "departure_time": "2023-05-08 10:45:00",
      "arrival_time": "2023-05-08 13:30:00",
      "status": "on-time",
      "aircraft_type": "Boeing 787"
    },
    {
      "id": 4,
      "flight_number": "HU101",
      "airline": "Hainan Airlines",
      "departure_airport": "PEK",
      "arrival_airport": "SHA",
      "departure_time": "2023-05-08 11:20:00",
      "arrival_time": "2023-05-08 14:10:00",
      "status": "cancelled",
      "aircraft_type": "Boeing 737"
    },
    {
      "id": 5,
      "flight_number": "FM953",
      "airline": "Shanghai Airlines",
      "departure_airport": "PVG",
      "arrival_airport": "SZX",
      "departure_time": "2023-05-08 12:30:00",
      "arrival_time": "2023-05-08 15:20:00",
      "status": "on-time",
      "aircraft_type": "Airbus A320"
    }
  ],
  "airports": [
    {
      "code": "PEK",
      "name": "Beijing Capital International Airport",
      "city": "Beijing",
      "country": "China",
      "latitude": 40.0725,
      "longitude": 116.5972
    },
    {
      "code": "PVG",
      "name": "Shanghai Pudong International Airport",
      "city": "Shanghai",
      "country": "China",
      "latitude": 31.1559,
      "longitude": 121.8064
    },
    {
      "code": "CAN",
      "name": "Guangzhou Baiyun International Airport",
      "city": "Guangzhou",
      "country": "China",
      "latitude": 23.3924,
      "longitude": 113.2986
    },
    {
      "code": "CTU",
      "name": "Chengdu Shuangliu International Airport",
      "city": "Chengdu",
      "country": "China",
      "latitude": 30.5786,
      "longitude": 103.9471
    },
    {
      "code": "SHA",
      "name": "Shanghai Hongqiao International Airport",
      "city": "Shanghai",
      "country": "China",
      "latitude": 31.1979,
      "longitude": 121.3362
    },
    {
      "code": "SZX",
      "name": "Shenzhen Bao'an International Airport",
      "city": "Shenzhen",
      "country": "China",
      "latitude": 22.6393,
      "longitude": 113.8107
    }
  ]
}